{
  "sections": [
    {
      "sights": [
        {
          "description": "<p>Et veldig flott veggmaleri.</p>",
          "location": {
            "lat": 59.913794,
            "long": 10.765893
          },
          "slug": "veggmaleri1",
          "title": "Veggmaleri 1"
        },
        {
          "description": "<p>Et veldig flott veggmaleri.</p>",
          "location": {
            "lat": 59.915784,
            "long": 10.763018
          },
          "slug": "veggmaleri2",
          "title": "Veggmaleri 2"
        },
        {
          "description": "<p>Et veldig flott veggmaleri.</p>",
          "location": {
            "lat": 59.913698,
            "long": 10.762267
          },
          "slug": "veggmaleri3",
          "title": "Veggmaleri 3"
        }
      ],
      "color": "#FF5722",
      "title": "Veggmaleri"
    },
    {
      "sights": [
        {
          "description": "<p>Blomsterkasser laget av ....</p>",
          "location": {
            "lat": 59.916225,
            "long": 10.765336
          },
          "slug": "blomsterkasser",
          "title": "Guerilla blomsterkasser"
        },
        {
          "description": "Lorem ipsum",
          "location": {
            "lat": 59.915203,
            "long": 10.769842
          },
          "slug": "noeannet",
          "title": "Noe annet"
        }
      ],
      "color": "#01579B",
      "title": "Annen gatekunst"
    }
  ],
  "title": "Gatekunst på Tøyen",
  "description": "<p>En initativ fra Tøyenløftet.</p>"
}
